{"meta":{"title":"Bohai Rim","hanzi":"环渤海","subtitle":"Industry-cluster overview","tagline":"China's northern workshop rings a gulf, not a river — heavy industry, brand champions and a hidden belt of one-county-one-product towns. This is the cluster map around the Bohai Sea.","clusters":27,"cities":20,"industries":13,"center_lat":38.59944,"center_lng":118.594317,"methodology":"Place coordinates are from Google Places, converted from China's GCJ-02 datum to WGS-84 to sit correctly on the OpenStreetMap / CARTO basemap. Each pin marks a place's dominant manufacturing or trade specialty drawn from current sourcing guides; clusters are indicative, not exclusive, and shift over time. Scope is the broad Bohai Economic Rim (Beijing, Tianjin, Hebei, Shandong, Liaoning); Jing-Jin-Ji is its core."},"categories":[{"id":"tech","name":"Tech & R&D","color":"#4A6B5E"},{"id":"electronics","name":"Electronics & solar","color":"#2E6E6A"},{"id":"appliances","name":"Home appliances","color":"#3D6A86"},{"id":"vehicles","name":"Vehicles & EV","color":"#46565B"},{"id":"machinery","name":"Machinery & engines","color":"#7A6A52"},{"id":"steel","name":"Steel & heavy metals","color":"#8A5535"},{"id":"chemicals","name":"Chemicals & materials","color":"#7A5A8A"},{"id":"apparel","name":"Apparel & textiles","color":"#C77A4A"},{"id":"footwear","name":"Footwear, leather & fur","color":"#9B5A47"},{"id":"hardware","name":"Hardware & wire","color":"#5A6E2E"},{"id":"bags","name":"Bags & luggage","color":"#B08A3C"},{"id":"shipbuilding","name":"Shipbuilding & marine","color":"#2E5A6E"},{"id":"trade","name":"Wholesale trade","color":"#C0402A"}],"provinces":[{"id":"beijing","name":"Beijing","hanzi":"北京"},{"id":"tianjin","name":"Tianjin","hanzi":"天津"},{"id":"hebei","name":"Hebei","hanzi":"河北"},{"id":"shandong","name":"Shandong","hanzi":"山东"},{"id":"liaoning","name":"Liaoning","hanzi":"辽宁"}],"clusters":[{"id":"zhongguancun","town":"Zhongguancun","hanzi":"中关村","province":"beijing","prefecture":"Haidian","primary":"tech","cats":["tech","electronics"],"note":"China's tech and R&D core — software, AI and chip design; the old electronics malls gave way to startups.","lat":39.978675,"lng":116.309972},{"id":"yizhuang","town":"Yizhuang (BDA)","hanzi":"亦庄","province":"beijing","prefecture":"Daxing","primary":"electronics","cats":["electronics","vehicles"],"note":"Beijing Economic-Technological Development Area — chips (SMIC), displays (BOE), robotics and EVs.","lat":39.790277,"lng":116.482411},{"id":"binhai","town":"Binhai New Area","hanzi":"滨海新区","province":"tianjin","prefecture":"Binhai","primary":"machinery","cats":["machinery","chemicals","vehicles"],"note":"Petrochemicals, Airbus A320 final assembly, autos and offshore equipment; the great northern port.","lat":39.002303,"lng":117.704435},{"id":"wuqing","town":"Wuqing","hanzi":"武清","province":"tianjin","prefecture":"Wuqing","primary":"vehicles","cats":["vehicles"],"note":"China's bicycle and e-bike capital; also autos and parts.","lat":39.382833,"lng":117.037952},{"id":"tangshan","town":"Tangshan","hanzi":"唐山","province":"hebei","prefecture":"Tangshan","primary":"steel","cats":["steel","machinery"],"note":"China's steel capital — more steel than almost any country; also rail stock, ceramics and robots.","lat":39.629142,"lng":118.173942},{"id":"baoding","town":"Baoding","hanzi":"保定","province":"hebei","prefecture":"Baoding","primary":"vehicles","cats":["vehicles","electronics"],"note":"Great Wall Motors' home and 'China Electric Valley' — solar (Yingli), wind and power equipment.","lat":38.87306,"lng":115.458272},{"id":"baigou","town":"Baigou","hanzi":"白沟","province":"hebei","prefecture":"Baoding","primary":"bags","cats":["bags","trade"],"note":"China's luggage and bag capital — a vast production base and wholesale market.","lat":39.127447,"lng":116.038468},{"id":"anping","town":"Anping","hanzi":"安平","province":"hebei","prefecture":"Hengshui","primary":"hardware","cats":["hardware"],"note":"The wire-mesh capital — 6,700+ factories and over half of China's wire-mesh exports.","lat":38.233876,"lng":115.513086},{"id":"xinji","town":"Xinji","hanzi":"辛集","province":"hebei","prefecture":"Shijiazhuang","primary":"footwear","cats":["footwear","apparel"],"note":"One of China's largest leather and fur garment bases and markets.","lat":37.942442,"lng":115.21183},{"id":"gaoyang","town":"Gaoyang","hanzi":"高阳","province":"hebei","prefecture":"Baoding","primary":"apparel","cats":["apparel"],"note":"China's towel capital — towels, bath textiles and bedding.","lat":38.689198,"lng":115.774565},{"id":"qinghe","town":"Qinghe","hanzi":"清河","province":"hebei","prefecture":"Xingtai","primary":"apparel","cats":["apparel"],"note":"China's cashmere capital — the world's largest cashmere processing and trading hub.","lat":37.089932,"lng":115.678435},{"id":"shahe","town":"Shahe","hanzi":"沙河","province":"hebei","prefecture":"Xingtai","primary":"chemicals","cats":["chemicals"],"note":"Flat-glass and glassware capital.","lat":36.905332,"lng":114.578029},{"id":"shijiazhuang","town":"Shijiazhuang","hanzi":"石家庄","province":"hebei","prefecture":"Shijiazhuang","primary":"chemicals","cats":["chemicals","apparel"],"note":"Provincial capital — pharmaceuticals (CSPC) and textiles.","lat":38.042139,"lng":114.508324},{"id":"botou","town":"Botou","hanzi":"泊头","province":"hebei","prefecture":"Cangzhou","primary":"hardware","cats":["hardware","machinery"],"note":"Pipe fittings, casting and auto dies and moulds.","lat":38.083118,"lng":116.572701},{"id":"qingdao","town":"Qingdao","hanzi":"青岛","province":"shandong","prefecture":"Qingdao","primary":"appliances","cats":["appliances","electronics","vehicles"],"note":"Home-appliance capital — Haier, Hisense; plus tires, trains (CRRC Sifang), beer and a top-10 port.","lat":36.065954,"lng":120.377857},{"id":"weifang","town":"Weifang","hanzi":"潍坊","province":"shandong","prefecture":"Weifang","primary":"machinery","cats":["machinery","electronics"],"note":"Diesel engines (Weichai), agricultural machinery and acoustics/MEMS (Goertek).","lat":36.706416,"lng":119.155878},{"id":"jinan","town":"Jinan","hanzi":"济南","province":"shandong","prefecture":"Jinan","primary":"machinery","cats":["machinery","vehicles"],"note":"Heavy trucks (Sinotruk), heavy industry and software.","lat":36.65141,"lng":117.113962},{"id":"zibo","town":"Zibo","hanzi":"淄博","province":"shandong","prefecture":"Zibo","primary":"chemicals","cats":["chemicals"],"note":"Ceramics, petrochemicals and new materials.","lat":36.812576,"lng":118.04872},{"id":"yantai","town":"Yantai","hanzi":"烟台","province":"shandong","prefecture":"Yantai","primary":"vehicles","cats":["vehicles","chemicals"],"note":"Autos and parts, wine and electronics; gold processing at nearby Zhaoyuan.","lat":37.462559,"lng":121.442804},{"id":"weihai","town":"Weihai","hanzi":"威海","province":"shandong","prefecture":"Weihai","primary":"apparel","cats":["apparel"],"note":"Fishing-tackle and outdoor-gear capital; swimwear, tires and marine industries.","lat":37.512449,"lng":122.116655},{"id":"linyi","town":"Linyi","hanzi":"临沂","province":"shandong","prefecture":"Linyi","primary":"trade","cats":["trade"],"note":"Northern China's wholesale-commodity capital — the 'Yiwu of the north'.","lat":35.154517,"lng":118.358579},{"id":"dongying","town":"Dongying","hanzi":"东营","province":"shandong","prefecture":"Dongying","primary":"chemicals","cats":["chemicals"],"note":"Shengli oilfield and the Yellow River Delta — petrochemicals, rubber and oil equipment.","lat":37.432972,"lng":118.668993},{"id":"dezhou","town":"Dezhou","hanzi":"德州","province":"shandong","prefecture":"Dezhou","primary":"electronics","cats":["electronics"],"note":"China's 'Solar Valley' — solar water heaters and renewable-energy equipment (Himin).","lat":37.42209,"lng":116.38923},{"id":"shenyang","town":"Shenyang","hanzi":"沈阳","province":"liaoning","prefecture":"Shenyang","primary":"machinery","cats":["machinery","vehicles"],"note":"Heavy machinery, machine tools, aerospace and autos (BMW Brilliance).","lat":41.802352,"lng":123.426834},{"id":"dalian","town":"Dalian","hanzi":"大连","province":"liaoning","prefecture":"Dalian","primary":"shipbuilding","cats":["shipbuilding","chemicals","electronics"],"note":"Shipbuilding, the great northeastern port, petrochemicals and IT/software outsourcing.","lat":38.913213,"lng":121.609757},{"id":"anshan","town":"Anshan","hanzi":"鞍山","province":"liaoning","prefecture":"Anshan","primary":"steel","cats":["steel"],"note":"Steel city — Ansteel, one of China's oldest iron-and-steel bases.","lat":41.10585,"lng":122.989099},{"id":"wafangdian","town":"Wafangdian","hanzi":"瓦房店","province":"liaoning","prefecture":"Dalian","primary":"machinery","cats":["machinery"],"note":"China's bearing capital.","lat":39.565786,"lng":121.98374}],"orientation":[{"k":"Beijing-Tianjin core","v":"R&D, chips and services in Beijing; petrochem, aerospace, autos and the port in Tianjin — the Jing-Jin-Ji heart."},{"k":"Hebei — heavy + specialty","v":"Tangshan steel plus a belt of one-county-one-product towns: wire mesh (Anping), bags (Baigou), leather/fur (Xinji), towels (Gaoyang), cashmere (Qinghe)."},{"k":"Shandong — appliances & engines","v":"Qingdao appliances, Weifang engines, Jinan trucks, Zibo chemicals, Linyi wholesale — heavy and brand-led."},{"k":"Liaoning — the old base","v":"Shenyang machinery, Dalian shipbuilding, Anshan steel, Wafangdian bearings — China's first heavy-industry heartland."},{"k":"Character","v":"More state-owned and heavy than the southern deltas, but Hebei's county clusters rival anything in Zhejiang."}],"notes":["It is a rim, not a delta: industry rings the Bohai gulf — Liaoning to the north, Hebei and Tianjin to the west, Shandong to the south.","The north skews heavier and more state-owned than the deltas — steel (Tangshan, Anshan), engines (Weifang), trucks (Jinan), ships (Dalian), chemicals — alongside brand champions like Haier and Great Wall.","Yet Hebei hides true single-product clusters every bit as specialised as Zhejiang's: Anping makes the world's wire mesh, Qinghe its cashmere, Baigou its bags, Gaoyang its towels.","Jing-Jin-Ji (Beijing-Tianjin-Hebei) is the official megaregion at the core; Shandong and Liaoning complete the wider Bohai Economic Rim."]}