{"meta":{"title":"Fujian","hanzi":"福建","subtitle":"Industry-cluster overview","tagline":"Fujian is a coastal chain of one-product county-cities — sneakers, porcelain, stone and tea — wedged between the Pearl River and Yangtze deltas, with new world-beaters in batteries and auto glass. This is the cluster map of the province.","clusters":21,"cities":9,"industries":13,"center_lat":25.90303,"center_lng":118.495268,"methodology":"Coordinates are from Google Places, converted from China's GCJ-02 datum to WGS-84 to sit correctly on the OpenStreetMap / CARTO basemap. Each pin marks a place's dominant manufacturing specialty drawn from current sourcing guides; clusters are indicative, not exclusive, and shift over time. The map covers Fujian's nine prefecture-level cities."},"categories":[{"id":"footwear","name":"Footwear & sportswear","color":"#9B5A47"},{"id":"apparel","name":"Apparel & textiles","color":"#C77A4A"},{"id":"stone","name":"Stone & building materials","color":"#7A6A52"},{"id":"ceramics","name":"Ceramics & porcelain","color":"#3D6A86"},{"id":"tea","name":"Tea","color":"#5A6E2E"},{"id":"food","name":"Food & beverages","color":"#C0402A"},{"id":"crafts","name":"Crafts, arts & bamboo","color":"#B08A3C"},{"id":"electronics","name":"Electronics & LED","color":"#2E6E6A"},{"id":"machinery","name":"Machinery & equipment","color":"#6C7A7E"},{"id":"metals","name":"Metals & mining","color":"#8A6A3C"},{"id":"materials","name":"Glass, chemicals & materials","color":"#7A5A8A"},{"id":"batteries","name":"Batteries & new energy","color":"#46707A"},{"id":"furniture","name":"Furniture & woodcarving","color":"#8A5535"}],"prefectures":[{"id":"quanzhou","name":"Quanzhou","hanzi":"泉州"},{"id":"putian","name":"Putian","hanzi":"莆田"},{"id":"xiamen","name":"Xiamen","hanzi":"厦门"},{"id":"zhangzhou","name":"Zhangzhou","hanzi":"漳州"},{"id":"fuzhou","name":"Fuzhou","hanzi":"福州"},{"id":"ningde","name":"Ningde","hanzi":"宁德"},{"id":"longyan","name":"Longyan","hanzi":"龙岩"},{"id":"sanming","name":"Sanming","hanzi":"三明"},{"id":"nanping","name":"Nanping","hanzi":"南平"}],"clusters":[{"id":"jinjiang","town":"Jinjiang","hanzi":"晋江","prefecture":"quanzhou","area":"Chendai","primary":"footwear","cats":["footwear","apparel","food"],"note":"China's sneaker capital — Chendai makes 1 in 5 of the world's sneakers (Anta, Xtep, 361°); also snack-food and hygiene giants.","lat":24.784411,"lng":118.547498},{"id":"shishi","town":"Shishi","hanzi":"石狮","prefecture":"quanzhou","area":"garment city","primary":"apparel","cats":["apparel"],"note":"Casual and leisure clothing capital, with Asia's largest specialist clothing market; children's wear.","lat":24.734873,"lng":118.643438},{"id":"nanan","town":"Nan'an","hanzi":"南安","prefecture":"quanzhou","area":"Shuitou","primary":"stone","cats":["stone"],"note":"China's stone-processing capital (Shuitou) — granite and marble; plus plumbing hardware.","lat":24.963031,"lng":118.381381},{"id":"huian","town":"Hui'an","hanzi":"惠安","prefecture":"quanzhou","area":"stone & Dali","primary":"stone","cats":["stone","food"],"note":"Stone-sculpture capital; also Dali Foods, a national snack-food giant.","lat":25.033486,"lng":118.792335},{"id":"anxi","town":"Anxi","hanzi":"安溪","prefecture":"quanzhou","area":"Tieguanyin","primary":"tea","cats":["tea","crafts"],"note":"Home of Tieguanyin oolong; also a rattan-iron crafts cluster.","lat":25.058174,"lng":118.182004},{"id":"dehua","town":"Dehua","hanzi":"德化","prefecture":"quanzhou","area":"white porcelain","primary":"ceramics","cats":["ceramics"],"note":"Porcelain capital — Blanc de Chine white porcelain, figurines and ceramic crafts.","lat":25.504177,"lng":118.228335},{"id":"yongchun","town":"Yongchun","hanzi":"永春","prefecture":"quanzhou","area":"incense","primary":"crafts","cats":["crafts"],"note":"Incense (joss-stick) capital; lacquer and bamboo crafts.","lat":25.324636,"lng":118.289453},{"id":"putian","town":"Putian","hanzi":"莆田","prefecture":"putian","area":"OEM shoes","primary":"footwear","cats":["footwear","crafts"],"note":"Mass OEM footwear for global brands (and famous for replicas); also ~30% of the world's oil paintings and gold-jewelry processing.","lat":25.456782,"lng":119.002976},{"id":"xianyou","town":"Xianyou","hanzi":"仙游","prefecture":"putian","area":"mahogany","primary":"furniture","cats":["furniture","crafts"],"note":"Classical redwood and mahogany furniture and woodcarving capital.","lat":25.376081,"lng":118.68494},{"id":"xiamen","town":"Xiamen","hanzi":"厦门","prefecture":"xiamen","area":"SEZ & port","primary":"electronics","cats":["electronics","machinery"],"note":"Electronics, LED lighting, displays and machinery; sunglasses; a major port and special economic zone.","lat":24.482157,"lng":118.084503},{"id":"zhangzhou","town":"Zhangzhou","hanzi":"漳州","prefecture":"zhangzhou","area":"canned food","primary":"food","cats":["food","machinery"],"note":"Canned food, mushrooms and fruit; food and beverage exports; also a clock and watch base.","lat":24.516448,"lng":117.642463},{"id":"changle","town":"Changle","hanzi":"长乐","prefecture":"fuzhou","area":"chemical fibre","primary":"apparel","cats":["apparel"],"note":"Chemical-fiber and warp-knit textile capital — yarns and knitted fabric.","lat":25.965961,"lng":119.51863},{"id":"fuqing","town":"Fuqing","hanzi":"福清","prefecture":"fuzhou","area":"Fuyao glass","primary":"materials","cats":["materials","food"],"note":"Fuyao Glass, the world's largest auto-glass maker; food, plastics and electronics.","lat":25.722971,"lng":119.379198},{"id":"fuzhou","town":"Fuzhou","hanzi":"福州","prefecture":"fuzhou","area":"provincial capital","primary":"electronics","cats":["electronics","apparel"],"note":"Provincial capital — optoelectronics, displays (BOE) and textile headquarters.","lat":26.077312,"lng":119.29167},{"id":"ningde","town":"Ningde","hanzi":"宁德","prefecture":"ningde","area":"CATL","primary":"batteries","cats":["batteries","metals"],"note":"CATL, the world's largest EV-battery maker; plus one of the world's biggest stainless-steel bases.","lat":26.669206,"lng":119.543609},{"id":"fuding","town":"Fuding","hanzi":"福鼎","prefecture":"ningde","area":"white tea","primary":"tea","cats":["tea"],"note":"Fuding white-tea capital.","lat":27.377573,"lng":120.211533},{"id":"longyan","town":"Longyan","hanzi":"龙岩","prefecture":"longyan","area":"Longgong","primary":"machinery","cats":["machinery"],"note":"Construction machinery — Longgong loaders and forklifts; heavy equipment.","lat":25.077798,"lng":117.012345},{"id":"shanghang","town":"Shanghang","hanzi":"上杭","prefecture":"longyan","area":"Zijin Mining","primary":"metals","cats":["metals"],"note":"Zijin Mining, a gold and copper giant; copper processing.","lat":24.804618,"lng":116.658929},{"id":"sanming","town":"Sanming","hanzi":"三明","prefecture":"sanming","area":"steel & fluorine","primary":"metals","cats":["metals","materials"],"note":"Sangang steel and a fluorine-chemicals base; forestry.","lat":26.267275,"lng":117.63432},{"id":"wuyishan","town":"Wuyishan","hanzi":"武夷山","prefecture":"nanping","area":"rock tea","primary":"tea","cats":["tea"],"note":"Wuyi rock tea and Da Hong Pao — the oolong heartland.","lat":27.759841,"lng":118.030319},{"id":"nanping","town":"Nanping","hanzi":"南平","prefecture":"nanping","area":"bamboo","primary":"crafts","cats":["crafts","materials"],"note":"Bamboo products, forestry and paper.","lat":26.644706,"lng":118.172934}],"orientation":[{"k":"Quanzhou — the powerhouse","v":"Footwear (Jinjiang), clothing (Shishi), stone (Nan'an), porcelain (Dehua), tea (Anxi) — the densest cluster county in the province."},{"k":"Coast vs inland","v":"The coast (Quanzhou, Xiamen, Fuzhou, Putian, Ningde) carries the export light industry; the inland west (Longyan, Sanming, Nanping) holds heavy industry, mining and tea."},{"k":"New energy","v":"Ningde is now a global new-energy hub — CATL batteries and a giant stainless-steel base."},{"k":"Tea country","v":"Three of China's great teas: Tieguanyin (Anxi), Wuyi rock tea (Wuyishan) and white tea (Fuding)."},{"k":"Trade vs make","v":"Xiamen and Fuzhou are the ports and brand HQs; the surrounding counties are where things are made."}],"notes":["Fujian's clusters cling to the coast — a chain of single-product county-cities between the Pearl River and Yangtze deltas, with heavy industry and tea inland to the west.","Quanzhou alone is one of China's densest cluster zones: sneakers in Jinjiang, clothing in Shishi, stone in Nan'an, porcelain in Dehua, oolong in Anxi.","The province pairs classic export light industry — shoes, clothing, ceramics, crafts — with new world number-ones: CATL batteries and Fuyao auto glass.","A pin marks a place's dominant specialty, not its only one; Quanzhou's counties in particular each make several things."]}