{"meta":{"title":"Guangzhou","hanzi":"广州","subtitle":"Wholesale-market map","tagline":"Guangzhou is not one market but dozens — a whole city of specialised wholesale complexes, the trading face of the Pearl River Delta. This is the map of where to buy what.","markets":20,"districts":5,"categories":12,"center_lat":23.124676,"center_lng":113.264667,"methodology":"Market coordinates are from Google Places, converted from China's GCJ-02 datum to WGS-84 to sit correctly on the OpenStreetMap / CARTO basemap. Each pin marks a market's dominant trade; large complexes carry more than one. Markets relocate, merge and close more often than factory towns, so confirm a market is still operating and at this address before a visit."},"categories":[{"id":"fabric","name":"Fabric & textiles","color":"#C77A4A"},{"id":"clothing","name":"Clothing & fashion","color":"#B5495B"},{"id":"footwear","name":"Shoes & footwear","color":"#9B5A47"},{"id":"leather","name":"Leather goods & bags","color":"#8A5535"},{"id":"jewelry","name":"Jewelry & jade","color":"#B08A3C"},{"id":"accessories","name":"Accessories & trims","color":"#6C7A7E"},{"id":"toys","name":"Toys, gifts & stationery","color":"#C0402A"},{"id":"cosmetics","name":"Cosmetics & beauty","color":"#A85A86"},{"id":"electronics","name":"Electronics & digital","color":"#2E6E6A"},{"id":"watches","name":"Watches & clocks","color":"#46565B"},{"id":"tea","name":"Tea","color":"#5A6E2E"},{"id":"dried","name":"Herbs & dried goods","color":"#7A6A52"}],"districts":[{"id":"haizhu","name":"Haizhu","hanzi":"海珠"},{"id":"yuexiu","name":"Yuexiu","hanzi":"越秀"},{"id":"liwan","name":"Liwan","hanzi":"荔湾"},{"id":"baiyun","name":"Baiyun","hanzi":"白云"},{"id":"tianhe","name":"Tianhe","hanzi":"天河"}],"markets":[{"id":"zhongda","town":"Zhongda Fabric Market","hanzi":"中大布匹市场","district":"haizhu","area":"Ruikang Rd","primary":"fabric","cats":["fabric","accessories"],"note":"South China's fabric hub — 20+ markets and thousands of stalls beside Sun Yat-sen University; trims and accessories too.","lat":23.090016,"lng":113.29039},{"id":"textile_city","town":"Guangzhou Int'l Textile City","hanzi":"广州国际轻纺城","district":"haizhu","area":"Xingangxi Rd","primary":"fabric","cats":["fabric","accessories"],"note":"The flagship Zhongda building — best-quality fabric and an accessories floor (zips, buttons, lace); popular with overseas buyers.","lat":23.091496,"lng":113.291283},{"id":"yide","town":"Yide Road Toy & Gift Market","hanzi":"一德路","district":"yuexiu","area":"Yide Rd","primary":"toys","cats":["toys"],"note":"The toy, gift and stationery centre; party and seasonal goods by the boxful.","lat":23.115391,"lng":113.251107},{"id":"onelink","town":"Onelink International Plaza","hanzi":"万菱广场","district":"yuexiu","area":"Haizhu Square","primary":"toys","cats":["toys","accessories"],"note":"Yiwu-style small commodities — toys, gifts, household goods and accessories under one roof.","lat":23.117383,"lng":113.257421},{"id":"baima","town":"Baima Garment Market","hanzi":"白马服装市场","district":"yuexiu","area":"Zhannan Rd","primary":"clothing","cats":["clothing"],"note":"The benchmark clothing wholesaler — mid-to-high women's fashion by the railway station.","lat":23.149409,"lng":113.248913},{"id":"zhanxi_shoes","town":"Zhanxi Shoe Market","hanzi":"站西鞋城","district":"yuexiu","area":"Zhanxi Rd","primary":"footwear","cats":["footwear"],"note":"The shoe-wholesale zone — buyers from Africa, Russia and the Middle East; shoes and shoe materials.","lat":23.149206,"lng":113.241256},{"id":"zhanxi_watch","town":"Zhanxi Watch Market","hanzi":"站西钟表城","district":"yuexiu","area":"Zhanxi Rd","primary":"watches","cats":["watches"],"note":"Watches and clocks wholesale, from movements to finished pieces.","lat":23.152444,"lng":113.247595},{"id":"taikang","town":"Taikang Jewelry City","hanzi":"泰康城广场","district":"yuexiu","area":"Taikang Rd","primary":"jewelry","cats":["jewelry","accessories"],"note":"Fashion jewelry and accessories — scarves, hats, hair, low-to-mid price by the piece in bulk.","lat":23.119664,"lng":113.262208},{"id":"dashatou","town":"Dashatou Electronics Market","hanzi":"大沙头电子市场","district":"yuexiu","area":"Luyin Rd","primary":"electronics","cats":["electronics"],"note":"Consumer electronics, phones, cameras and second-hand gear; repairs and trade-ins.","lat":23.119099,"lng":113.279781},{"id":"shisanhang","town":"Shisanhang Clothing Market","hanzi":"十三行","district":"liwan","area":"Shisanhang Rd","primary":"clothing","cats":["clothing"],"note":"Cheap, fast women's fashion in dense narrow lanes; buyers from Africa and Southeast Asia.","lat":23.113828,"lng":113.245352},{"id":"hualin","town":"Hualin Jade Street","hanzi":"华林玉器街","district":"liwan","area":"Changshou Rd","primary":"jewelry","cats":["jewelry"],"note":"Historic jade trading street — raw and finished jade, with on-site grading.","lat":23.119983,"lng":113.241289},{"id":"liwan_plaza","town":"Liwan Plaza","hanzi":"荔湾广场","district":"liwan","area":"Kangwang Rd","primary":"jewelry","cats":["jewelry","accessories"],"note":"Guangzhou's largest jewelry, gemstone, pearl and bead wholesale complex.","lat":23.117839,"lng":113.243569},{"id":"qingping","town":"Qingping Medicine Market","hanzi":"清平市场","district":"liwan","area":"Qingping Rd","primary":"dried","cats":["dried"],"note":"Traditional Chinese medicine, herbs and dried seafood — a vast specialist market.","lat":23.112672,"lng":113.239653},{"id":"fangcun","town":"Fangcun Tea Market","hanzi":"芳村茶叶市场","district":"liwan","area":"Fangcun","primary":"tea","cats":["tea"],"note":"China's largest tea wholesale market — every region and grade, plus teaware.","lat":23.105003,"lng":113.216069},{"id":"zhongshan8","town":"Zhongshan-8 Children's Wear","hanzi":"中山八路童装","district":"liwan","area":"Zhongshanba Rd","primary":"clothing","cats":["clothing"],"note":"Children's-wear and baby-goods wholesale cluster.","lat":23.127754,"lng":113.226884},{"id":"guihuagang","town":"Guihuagang Leather & Bag Market","hanzi":"桂花岗皮具市场","district":"baiyun","area":"Jiefang North Rd","primary":"leather","cats":["leather"],"note":"The Sanyuanli bag zone — dozens of markets for bags, wallets, belts and luggage.","lat":23.1525,"lng":113.256892},{"id":"baiyun_leather","town":"Baiyun World Leather Trading Center","hanzi":"白云世界皮具贸易中心","district":"baiyun","area":"Jiefang North Rd","primary":"leather","cats":["leather"],"note":"Flagship leather-goods mall in the Sanyuanli cluster; quality varies and replica trade is heavy.","lat":23.152885,"lng":113.258351},{"id":"beauty_center","town":"Guangzhou Beauty Exchange Center","hanzi":"广州美博城","district":"baiyun","area":"Guangyuan West Rd","primary":"cosmetics","cats":["cosmetics"],"note":"Asia-Pacific's leading cosmetics and beauty wholesale market — products, packaging and salon machines.","lat":23.159129,"lng":113.24568},{"id":"gangding","town":"Gangding Digital Plaza","hanzi":"岗顶太平洋数码","district":"tianhe","area":"Shipai West Rd","primary":"electronics","cats":["electronics"],"note":"Computers, phones and digital products (Pacific Digital, Tianhe Computer City).","lat":23.136182,"lng":113.331949},{"id":"shahe","town":"Shahe Clothing Wholesale Market","hanzi":"沙河服装批发市场","district":"tianhe","area":"Liquan Rd","primary":"clothing","cats":["clothing"],"note":"High-volume, low-price casual clothing and jeans; the value end of Guangzhou fashion.","lat":23.155427,"lng":113.303955}],"orientation":[{"k":"Fabric","v":"Zhongda (Haizhu) — South China's fabric hub, 20+ markets by Sun Yat-sen University."},{"k":"Clothing","v":"Baima (mid-high), Shisanhang (cheap/trendy), Shahe (volume/casual) — three price tiers."},{"k":"Bags & leather","v":"Sanyuanli / Guihuagang (Baiyun) — dozens of bag markets in one zone."},{"k":"Jewelry & jade","v":"Hualin and Liwan Plaza (Liwan) for jade, pearls and beads; Taikang for fashion jewelry."},{"k":"Gifts & toys","v":"Yide Road and Onelink (Yuexiu), by Haizhu Square."},{"k":"Specialist","v":"Zhanxi for shoes and watches, Fangcun for tea, Qingping for herbs, Gangding for digital."},{"k":"How to buy","v":"Most open ~9:00–18:00; weekdays are calmer. Wholesale minimums apply, bargaining is expected, and you should confirm samples before any bulk order."}],"notes":["Guangzhou is not one market but dozens — each a multi-floor complex, clustered by trade. The city is the trading face of the Pearl River Delta's factories.","Markets cluster by product: fabric at Zhongda, clothing by price tier (Baima, Shisanhang, Shahe), bags at Sanyuanli, jade in Liwan, gifts and toys at Yide.","Most stalls are wholesale-only with minimums; the real price needs a bulk order, and bargaining is expected — opening around 30–50% of the quote is normal.","Quality and intellectual-property vary sharply market to market; confirm samples first, and be aware that some markets (bags and watches especially) trade heavily in replicas."]}