{"meta":{"title":"Yangtze River Delta","hanzi":"长江三角洲","subtitle":"Industry-cluster overview","tagline":"China's other factory floor is a web of one-product towns wrapped around Shanghai — denser in light industry than anywhere on earth. This is the cluster map across Shanghai, Jiangsu and Zhejiang.","clusters":32,"cities":15,"industries":13,"center_lat":30.602554,"center_lng":120.595886,"methodology":"Town and district coordinates are from Google Places, converted from China's GCJ-02 datum to WGS-84 to sit correctly on the OpenStreetMap / CARTO basemap. Each pin marks a place's dominant manufacturing or trade specialty drawn from current sourcing guides; clusters are indicative, not exclusive, and shift over time. Scope is the Shanghai-Jiangsu-Zhejiang core of the Yangtze River Delta; Anhui is the official western extension."},"categories":[{"id":"electronics","name":"Electronics & IC","color":"#2E6E6A"},{"id":"apparel","name":"Apparel & textiles","color":"#C77A4A"},{"id":"home_tex","name":"Home textiles","color":"#B5828C"},{"id":"footwear","name":"Footwear & leather","color":"#9B5A47"},{"id":"furniture","name":"Furniture & flooring","color":"#8A5535"},{"id":"appliances","name":"Home appliances","color":"#3D6A86"},{"id":"hardware","name":"Hardware & metal","color":"#5A6E2E"},{"id":"molds","name":"Molds & plastics","color":"#6C7A7E"},{"id":"eyewear","name":"Eyewear & optical","color":"#4A6B5E"},{"id":"jewelry","name":"Jewelry & pearls","color":"#B5495B"},{"id":"auto","name":"Auto & EV","color":"#46565B"},{"id":"machinery","name":"Machinery & equipment","color":"#7A6A52"},{"id":"trade","name":"Wholesale trade","color":"#C0402A"}],"provinces":[{"id":"shanghai","name":"Shanghai","hanzi":"上海"},{"id":"jiangsu","name":"Jiangsu","hanzi":"江苏"},{"id":"zhejiang","name":"Zhejiang","hanzi":"浙江"}],"clusters":[{"id":"anting","town":"Anting","hanzi":"安亭","province":"shanghai","prefecture":"Jiading","primary":"auto","cats":["auto"],"note":"China's first 'auto town' — SAIC-Volkswagen's base.","lat":31.296199,"lng":121.159516},{"id":"zhangjiang","town":"Zhangjiang","hanzi":"张江","province":"shanghai","prefecture":"Pudong","primary":"electronics","cats":["electronics"],"note":"Chip design, IC and biotech — Shanghai's 'Silicon Valley'.","lat":31.207808,"lng":121.610297},{"id":"lingang","town":"Lingang","hanzi":"临港","province":"shanghai","prefecture":"Pudong","primary":"auto","cats":["auto","electronics"],"note":"Tesla's Gigafactory and the new EV, chip and equipment free-trade zone.","lat":30.891263,"lng":121.920432},{"id":"kunshan","town":"Kunshan","hanzi":"昆山","province":"jiangsu","prefecture":"Suzhou","primary":"electronics","cats":["electronics"],"note":"Laptop and electronics capital (Foxconn) — long built a large share of the world's notebooks.","lat":31.184348,"lng":121.002744},{"id":"suzhou_sip","town":"Suzhou Industrial Park","hanzi":"苏州工业园区","province":"jiangsu","prefecture":"Suzhou","primary":"electronics","cats":["electronics"],"note":"Precision electronics, IC and biomed in the China-Singapore park.","lat":31.321614,"lng":120.766228},{"id":"shengze","town":"Shengze","hanzi":"盛泽","province":"jiangsu","prefecture":"Suzhou","primary":"apparel","cats":["apparel"],"note":"Silk and synthetic textiles; the China Eastern Silk Market.","lat":30.908231,"lng":120.665915},{"id":"changshu","town":"Changshu","hanzi":"常熟","province":"jiangsu","prefecture":"Suzhou","primary":"apparel","cats":["apparel"],"note":"Garment manufacturing and the China Changshu Garment City.","lat":31.655746,"lng":120.747844},{"id":"wuxi","town":"Wuxi","hanzi":"无锡","province":"jiangsu","prefecture":"Wuxi","primary":"electronics","cats":["electronics","machinery"],"note":"Integrated circuits, solar PV and IoT.","lat":31.492878,"lng":120.307761},{"id":"changzhou","town":"Changzhou","hanzi":"常州","province":"jiangsu","prefecture":"Changzhou","primary":"machinery","cats":["machinery","auto"],"note":"Rail transit (CRRC), machinery, solar and graphene.","lat":31.812762,"lng":119.968901},{"id":"nanjing","town":"Nanjing","hanzi":"南京","province":"jiangsu","prefecture":"Nanjing","primary":"electronics","cats":["electronics","machinery"],"note":"Electronics, petrochemicals, autos and display.","lat":32.060455,"lng":118.791286},{"id":"nantong","town":"Nantong","hanzi":"南通","province":"jiangsu","prefecture":"Nantong","primary":"home_tex","cats":["home_tex"],"note":"Home-textiles capital — bedding and curtains (the Jiazhili market).","lat":31.98175,"lng":120.889494},{"id":"danyang","town":"Danyang","hanzi":"丹阳","province":"jiangsu","prefecture":"Zhenjiang","primary":"eyewear","cats":["eyewear"],"note":"World optical-lens capital — produces roughly half the planet's spectacle lenses.","lat":32.011646,"lng":119.602012},{"id":"keqiao","town":"Keqiao","hanzi":"柯桥","province":"zhejiang","prefecture":"Shaoxing","primary":"apparel","cats":["apparel","trade"],"note":"China Textile City — the world's largest fabric market.","lat":29.750686,"lng":120.54902},{"id":"shengzhou","town":"Shengzhou","hanzi":"嵊州","province":"zhejiang","prefecture":"Shaoxing","primary":"apparel","cats":["apparel"],"note":"Necktie capital — a vast share of the world's ties.","lat":29.591082,"lng":120.817566},{"id":"datang","town":"Datang","hanzi":"大唐","province":"zhejiang","prefecture":"Shaoxing","primary":"apparel","cats":["apparel"],"note":"Sock capital (Zhuji) — billions of pairs a year.","lat":29.695798,"lng":120.163021},{"id":"shanxiahu","town":"Shanxiahu / Zhuji","hanzi":"山下湖","province":"zhejiang","prefecture":"Shaoxing","primary":"jewelry","cats":["jewelry"],"note":"Freshwater-pearl capital — the world's pearl trading hub.","lat":29.843922,"lng":120.347361},{"id":"haining","town":"Haining","hanzi":"海宁","province":"zhejiang","prefecture":"Jiaxing","primary":"footwear","cats":["footwear","apparel"],"note":"China Leather City — leather, fur, warp-knit and fashion.","lat":30.511857,"lng":120.676803},{"id":"puyuan","town":"Puyuan","hanzi":"濮院","province":"zhejiang","prefecture":"Jiaxing","primary":"apparel","cats":["apparel"],"note":"Sweater and cashmere knitwear market (Tongxiang).","lat":30.679832,"lng":120.614394},{"id":"zhili","town":"Zhili","hanzi":"织里","province":"zhejiang","prefecture":"Huzhou","primary":"apparel","cats":["apparel"],"note":"China's children's-wear capital — 14,000+ makers.","lat":30.865305,"lng":120.264649},{"id":"anji","town":"Anji","hanzi":"安吉","province":"zhejiang","prefecture":"Huzhou","primary":"furniture","cats":["furniture"],"note":"Office-chair capital — seating and bamboo.","lat":30.640681,"lng":119.677304},{"id":"nanxun","town":"Nanxun","hanzi":"南浔","province":"zhejiang","prefecture":"Huzhou","primary":"furniture","cats":["furniture"],"note":"Wood-flooring capital.","lat":30.83076,"lng":120.279518},{"id":"cixi","town":"Cixi","hanzi":"慈溪","province":"zhejiang","prefecture":"Ningbo","primary":"appliances","cats":["appliances"],"note":"Small-home-appliance capital — heaters, kitchen gadgets, personal care.","lat":30.17208,"lng":121.262124},{"id":"yuyao","town":"Yuyao","hanzi":"余姚","province":"zhejiang","prefecture":"Ningbo","primary":"molds","cats":["molds"],"note":"Plastics and injection-mould base.","lat":30.039433,"lng":121.149891},{"id":"ningbo","town":"Ningbo","hanzi":"宁波","province":"zhejiang","prefecture":"Ningbo","primary":"apparel","cats":["apparel","molds"],"note":"Menswear and knitwear (Youngor, Shanshan), moulds, and a top-three global port.","lat":29.819781,"lng":121.542838},{"id":"hangzhou","town":"Hangzhou","hanzi":"杭州","province":"zhejiang","prefecture":"Hangzhou","primary":"electronics","cats":["electronics","apparel"],"note":"Surveillance and AI hardware (Hikvision, Dahua), silk, and the e-commerce capital (Alibaba).","lat":30.276479,"lng":120.150456},{"id":"yiwu","town":"Yiwu","hanzi":"义乌","province":"zhejiang","prefecture":"Jinhua","primary":"trade","cats":["trade"],"note":"The world's small-commodities market — see the building-level deep-dive.","lat":29.343817,"lng":120.104083},{"id":"yongkang","town":"Yongkang","hanzi":"永康","province":"zhejiang","prefecture":"Jinhua","primary":"hardware","cats":["hardware"],"note":"China's hardware capital — tools, cookware and e-scooters.","lat":28.891367,"lng":120.042635},{"id":"wenzhou","town":"Wenzhou","hanzi":"温州","province":"zhejiang","prefecture":"Wenzhou","primary":"footwear","cats":["footwear","hardware"],"note":"Shoe and leather capital; also lighters, locks and razors.","lat":27.998202,"lng":120.695332},{"id":"yueqing","town":"Yueqing / Liushi","hanzi":"柳市","province":"zhejiang","prefecture":"Wenzhou","primary":"electronics","cats":["electronics","hardware"],"note":"Low-voltage electrical capital — Chint, Delixi and thousands of switchgear makers.","lat":28.041675,"lng":120.888287},{"id":"huangyan","town":"Huangyan","hanzi":"黄岩","province":"zhejiang","prefecture":"Taizhou","primary":"molds","cats":["molds"],"note":"China's mould capital.","lat":28.65278,"lng":121.258728},{"id":"yuhuan","town":"Yuhuan","hanzi":"玉环","province":"zhejiang","prefecture":"Taizhou","primary":"auto","cats":["auto","hardware"],"note":"Auto parts, valves and CNC copper fittings.","lat":28.139132,"lng":121.227457},{"id":"taizhou","town":"Taizhou","hanzi":"台州","province":"zhejiang","prefecture":"Taizhou","primary":"auto","cats":["auto","machinery"],"note":"Geely's birthplace; pumps, sewing machines and plastics.","lat":28.67604,"lng":121.438574}],"orientation":[{"k":"Shanghai — the hub","v":"Autos (SAIC, Tesla at Lingang), chips and biotech (Zhangjiang), finance and trade radiate from the centre."},{"k":"Jiangsu — electronics & heavy","v":"The Suzhou-Wuxi corridor makes laptops, IC and solar; Nantong home textiles; Danyang the world's lenses."},{"k":"Zhejiang — light-industry towns","v":"Dense single-product towns: fabric (Keqiao), leather (Haining), socks, ties, pearls, hardware (Yongkang), appliances (Cixi), moulds, small commodities (Yiwu)."},{"k":"Getting around","v":"The densest high-speed-rail web on earth ties it together — Shanghai, Hangzhou, Suzhou and Nanjing are all within about 1.5 hours."},{"k":"Trade vs make","v":"Yiwu and Keqiao are where goods are traded; the surrounding towns are where they are made."}],"notes":["Zhejiang perfected the “block economy” (块状经济): one town, one product, an entire supply chain in a few streets — socks in Datang, ties in Shengzhou, pearls in Shanxiahu, moulds in Huangyan.","The delta often sits higher up the value chain than the south — chips and precision (Suzhou, Wuxi), optics (Danyang), EVs (Lingang, Geely) — alongside its light-industry towns.","A pin marks the dominant local specialty, not the only one. Shanghai, Hangzhou, Ningbo and Suzhou each make far more than one thing.","Officially the Yangtze River Delta now also includes Anhui (Hefei appliances and displays, Wuhu autos); this map keeps to the Shanghai-Jiangsu-Zhejiang core."]}